{"type": "FeatureCollection", "features": [{"id": 0, "type": "Feature", "geometry": {"type": "Point", "coordinates": [117.270375, 31.841339]}, "properties": {"name": "中国科学技术大学 地球和空间科学学院", "city": "合肥市"}}, {"id": 1, "type": "Feature", "geometry": {"type": "Point", "coordinates": [116.31426, 39.991768]}, "properties": {"name": "北京大学 地球与空间科学学院", "city": "北京市"}}, {"id": 2, "type": "Feature", "geometry": {"type": "Point", "coordinates": [116.315618, 39.947662]}, "properties": {"name": "中国地震局 地球物理研究所", "city": "北京市"}}, {"id": 3, "type": "Feature", "geometry": {"type": "Point", "coordinates": [116.383207, 39.977771]}, "properties": {"name": "中国科学院 地质与地球物理研究所", "city": "北京市"}}, {"id": 4, "type": "Feature", "geometry": {"type": "Point", "coordinates": [116.251417, 39.908198]}, "properties": {"name": "中国科学院大学 地球与行星科学学院", "city": "北京"}}, {"id": 5, "type": "Feature", "geometry": {"type": "Point", "coordinates": [116.30296, 39.9291]}, "properties": {"name": "首都师范大学", "city": "北京"}}, {"id": 6, "type": "Feature", "geometry": {"type": "Point", "coordinates": [113.36333, 23.144246]}, "properties": {"name": "中国科学院 广州地球化学研究所", "city": "广州市"}}, {"id": 7, "type": "Feature", "geometry": {"type": "Point", "coordinates": [113.999864, 22.594241]}, "properties": {"name": "南方科技大学 地球与空间科学系", "city": "深圳市"}}, {"id": 8, "type": "Feature", "geometry": {"type": "Point", "coordinates": [110.303073, 25.063901]}, "properties": {"name": "桂林理工大学 地球科学学院", "city": "桂林市"}}, {"id": 9, "type": "Feature", "geometry": {"type": "Point", "coordinates": [104.775043, 29.35235]}, "properties": {"name": "自贡市环境监测中心", "city": "自贡市"}}, {"id": 10, "type": "Feature", "geometry": {"type": "Point", "coordinates": [114.366316, 30.574801]}, "properties": {"name": "中国科学院 测量与地球物理研究所", "city": "武汉市"}}, {"id": 11, "type": "Feature", "geometry": {"type": "Point", "coordinates": [114.351956, 30.53962]}, "properties": {"name": "中国地震局 地震研究所", "city": "武汉市"}}, {"id": 12, "type": "Feature", "geometry": {"type": "Point", "coordinates": [114.399564, 30.518594]}, "properties": {"name": "中国地质大学（武汉） 地球物理与空间信息学院", "city": "武汉"}}, {"id": 13, "type": "Feature", "geometry": {"type": "Point", "coordinates": [114.360734, 30.541093]}, "properties": {"name": "武汉大学 测绘学院", "city": "武汉市"}}, {"id": 14, "type": "Feature", "geometry": {"type": "Point", "coordinates": [104.141079, 30.673939]}, "properties": {"name": "成都理工大学 地球物理学院", "city": "成都市"}}, {"id": 15, "type": "Feature", "geometry": {"type": "Point", "coordinates": [118.781832, 32.055826]}, "properties": {"name": "南京大学 地球科学系", "city": "南京市"}}, {"id": 16, "type": "Feature", "geometry": {"type": "Point", "coordinates": [117.145667, 34.218558]}, "properties": {"name": "中国矿业大学 环境与测绘学院", "city": "徐州市"}}, {"id": 17, "type": "Feature", "geometry": {"type": "Point", "coordinates": [102.855505, 24.826814]}, "properties": {"name": "云南大学 资源环境与地球科学学院", "city": "昆明市"}}, {"id": 18, "type": "Feature", "geometry": {"type": "Point", "coordinates": [102.5, 25.3833]}, "properties": {"name": "昆明理工大学 国土资源工程学院/云南省基础测绘技术中心", "city": "昆明市"}}, {"id": 19, "type": "Feature", "geometry": {"type": "Point", "coordinates": [116.799801, 39.952166]}, "properties": {"name": "中国地震局 防灾科技学院", "city": "廊坊市"}}, {"id": 20, "type": "Feature", "geometry": {"type": "Point", "coordinates": [114.46814, 37.09166]}, "properties": {"name": "河北省地震局红山基准台", "city": "邢台市"}}, {"id": 21, "type": "Feature", "geometry": {"type": "Point", "coordinates": [126.611055, 45.713993]}, "properties": {"name": "中国地震局 工程力学研究所", "city": "哈尔滨市"}}, {"id": 22, "type": "Feature", "geometry": {"type": "Point", "coordinates": [120.124289, 36.000097]}, "properties": {"name": "山东科技大学 地球科学与工程学院", "city": "青岛"}}, {"id": 23, "type": "Feature", "geometry": {"type": "Point", "coordinates": [120.346439, 36.055339]}, "properties": {"name": "中国科学院 海洋研究所", "city": "青岛"}}, {"id": 24, "type": "Feature", "geometry": {"type": "Point", "coordinates": [120.495551, 36.160428]}, "properties": {"name": "中国海洋大学 海洋地球科学学院", "city": "青岛"}}, {"id": 25, "type": "Feature", "geometry": {"type": "Point", "coordinates": [127.381, 42.2576]}, "properties": {"name": "吉林省龙岗火山监测站", "city": "白山市"}}, {"id": 26, "type": "Feature", "geometry": {"type": "Point", "coordinates": [79.211289, 41.203188]}, "properties": {"name": "新疆地震局乌什国家数字地震台", "city": "阿克苏"}}, {"id": 27, "type": "Feature", "geometry": {"type": "Point", "coordinates": [106.273241, 38.475111]}, "properties": {"name": "宁夏回族自治区地质调查院", "city": "银川"}}, {"id": 28, "type": "Feature", "geometry": {"type": "Point", "coordinates": [106.42375, 29.822202]}, "properties": {"name": "西南大学 地理科学学院", "city": "重庆市"}}, {"id": 29, "type": "Feature", "geometry": {"type": "Point", "coordinates": [121.537235, 25.014778]}, "properties": {"name": "國立台灣大學 地質科學系暨研究所", "city": "台北市"}}, {"id": 30, "type": "Feature", "geometry": {"type": "Point", "coordinates": [113.259205, 35.186359]}, "properties": {"name": "河南理工大学 测绘学院", "city": "焦作市"}}, {"id": 31, "type": "Feature", "geometry": {"type": "Point", "coordinates": [112.92615, 28.1722916]}, "properties": {"name": "中南大学 地球科学与信息物理学院", "city": "长沙市"}}, {"id": 32, "type": "Feature", "geometry": {"type": "Point", "coordinates": [-73.125765, 40.914749]}, "properties": {"name": "Department of Geosciences, State University of New York at Stony Brook", "city": "Stony Brook"}}, {"id": 33, "type": "Feature", "geometry": {"type": "Point", "coordinates": [-95.345146, 29.722887]}, "properties": {"name": "Department of Earth and Atmospheric Sciences, University of Houston", "city": "Houston"}}, {"id": 34, "type": "Feature", "geometry": {"type": "Point", "coordinates": [-84.47799, 42.731188]}, "properties": {"name": "Department of Earth and Enviromental Sciences, Michigan State Univeristy", "city": "East Lansing"}}, {"id": 35, "type": "Feature", "geometry": {"type": "Point", "coordinates": [8.367217, 49.020638]}, "properties": {"name": "Geophysikalisches Instiut, Karlsruhe Inistitute of Technology", "city": "Karlsruhe"}}, {"id": 36, "type": "Feature", "geometry": {"type": "Point", "coordinates": [174.765979, -41.290094]}, "properties": {"name": "School of Geography, Environment and Earth Sciences, Victoria University of Wellington", "city": "Wellington"}}, {"id": 37, "type": "Feature", "geometry": {"type": "Point", "coordinates": [13.06319, 52.383021]}, "properties": {"name": "Helmholtz-Zentrum Potsdam Deutsches GeoForschungsZentrum GFZ", "city": "Potsdam"}}, {"id": 38, "type": "Feature", "geometry": {"type": "Point", "coordinates": [11.567722, 48.149944]}, "properties": {"name": "Lehrstuhl für Astronomische und Physikalische Geodäsie  Technische Universität München", "city": "Munich"}}, {"id": 39, "type": "Feature", "geometry": {"type": "Point", "coordinates": [115.6052, -32.0474]}, "properties": {"name": "Western Australian Centre for Geodesy, Curtin University", "city": "Perth"}}]}